City_ID,City,Country,Max Temp,Current Description,Lat,Lng,Hotel Name
2,Bulawayo,ZW,59.56,broken clouds,-20.15,28.5833,4 On Housman Backpackers
3,Padang,ID,75.25,overcast clouds,-0.9492,100.3543,Mercure Padang
4,Port Alfred,ZA,58.17,moderate rain,-33.5906,26.891,The Halyards Hotel
5,Hamilton,US,76.42,scattered clouds,39.1834,-84.5333,Six Acres Bed & Breakfast
6,Rikitea,PF,71.29,moderate rain,-23.1203,-134.9692,People ThankYou
9,Butaritari,KI,82.09,few clouds,3.0707,172.7902,Isles Sunset Lodge
11,Bredasdorp,ZA,56.89,broken clouds,-34.5322,20.0403,Bredasdorp Country Manor
13,Ailigandi,PA,80.65,few clouds,9.2333,-78.0167,Akwa Reef Lodge
15,Cape Town,ZA,59.41,few clouds,-33.9258,18.4232,"Radisson Blu Hotel Waterfront, Cape Town"
16,Faanui,PF,79.68,light rain,-16.4833,-151.75,Bora-Bora Pearl Beach Resort & Spa
17,Nouadhibou,MR,64.38,clear sky,20.931,-17.0347,El Medina
19,Busselton,AU,55.8,clear sky,-33.65,115.3333,Observatory Guest House
20,Castro,BR,60.01,clear sky,-24.7911,-50.0119,CHACARA BAILLY
21,Tezu,IN,69.01,overcast clouds,27.9167,96.1667,Circuit House
23,Brasileia,BR,76.53,broken clouds,-11.0161,-68.7481,Pousada Tobias
25,Rapid Valley,US,68.2,overcast clouds,44.0625,-103.1463,Fairfield Inn & Suites by Marriott Rapid City
27,Mataura,NZ,57.47,few clouds,-46.1927,168.8643,Ellie's Villa
30,Paragominas,BR,73.15,overcast clouds,-2.9667,-47.4833,INOVA
31,Sao Filipe,CV,73.29,clear sky,14.8961,-24.4956,Hotel Xaguate
33,Puerto Ayora,EC,74.3,scattered clouds,-0.7393,-90.3518,Finch Bay Galapagos Hotel
37,Hilo,US,87.28,overcast clouds,19.7297,-155.09,Hilo Hawaiian Hotel
38,Turan,VN,76.98,few clouds,16.0678,108.2208,Grand Mercure Danang
42,Quatre Cocos,MU,76.08,overcast clouds,-20.2078,57.7625,Sunrise Attitude Hotel
43,Saldanha,ZA,58.19,clear sky,-33.0117,17.9442,Blue Bay Lodge
44,Catia La Mar,VE,77.43,broken clouds,10.6038,-67.0303,HOTEL PLAYA GRANDE CARIBE
47,Vao,NC,75.07,broken clouds,-22.6667,167.4833,Hotel Kou-Bugny
49,Port Shepstone,ZA,70.32,light rain,-30.7414,30.455,My Den Beachfront Bed and Breakfast | Self-Catering
50,Shihezi,CN,56.89,clear sky,44.3,86.0333,Home Inn Shihezi Dongwu Road Century Square
51,Hami,CN,62.91,overcast clouds,42.8,93.45,Laoyutang Resort
52,Saint-Philippe,RE,76.59,light rain,-21.3585,55.7679,"Chambres d'hôte ""La Trinité"""
53,Kipini,KE,80.64,broken clouds,-2.5257,40.5262,Delta Sea Mall
55,Nhulunbuy,AU,81.21,overcast clouds,-12.2333,136.7667,East Arnhem Real Estate
57,Mount Gambier,AU,53.53,clear sky,-37.8333,140.7667,The Commodore
58,Dafeng,CN,71.35,scattered clouds,23.4517,108.5881,Shenglong Hotel
60,Avarua,CK,80.65,scattered clouds,-21.2078,-159.775,Paradise Inn
61,Richards Bay,ZA,68.31,broken clouds,-28.783,32.0377,BON Hotel Waterfront Richards Bay
63,Santiago,CL,70.99,clear sky,-33.4569,-70.6483,Hotel Panamericano
65,Hermanus,ZA,53.8,scattered clouds,-34.4187,19.2345,Misty Waves Boutique Hotel
66,Gizo,SB,81.7,overcast clouds,-8.103,156.8419,Imagination Island
67,Eyl,SO,81.39,broken clouds,7.9803,49.8164,Amiin Hotel
69,Bambanglipuro,ID,75.85,broken clouds,-7.95,110.2833,Puri Brata
70,Margate,GB,52.3,overcast clouds,51.3813,1.3862,Premier Inn Margate hotel
71,Mar Del Plata,AR,53.62,broken clouds,-38.0023,-57.5575,Gran Hotel Mar del Plata
72,Makokou,GA,70.88,broken clouds,0.5738,12.8642,Hôtel
73,Kaeo,NZ,65.32,scattered clouds,-35.1,173.7833,Bushido Lodge
74,Lagoa,PT,57.27,overcast clouds,39.05,-27.9833,Casa Das Faias
76,Kathu,TH,85.75,overcast clouds,7.9178,98.3332,Novotel Phuket Resort
77,Bairiki,KI,86.0,few clouds,1.3292,172.9752,Tarawa Boutique Hotel
78,Samarai,PG,82.78,overcast clouds,-10.6167,150.6667,Nuli Sapi
79,Chimbote,PE,67.05,broken clouds,-9.0853,-78.5783,Hotel Briliá
80,Bang Racham,TH,85.05,few clouds,14.892,100.3173,อมรรัตน์ สุวิชัย
81,Fortuna,US,60.85,broken clouds,40.5982,-124.1573,Super 8 by Wyndham Fortuna
83,Gien,FR,53.55,overcast clouds,47.6933,2.6309,Hôtel la Poularde
84,Madingou,CG,74.16,moderate rain,-4.1536,13.55,HOTEL KIM ELISA
85,Vaini,TO,82.56,few clouds,-21.2,-175.2,Keleti Beach Resort
87,Mweka,CD,72.63,broken clouds,-4.85,21.5667,Guest House Boshab
88,Khopoli,IN,84.49,light rain,18.7833,73.3333,The Dukes Retreat
90,Carnarvon,AU,64.47,clear sky,-24.8667,113.6333,Hospitality Carnarvon
91,Caravelas,BR,74.5,few clouds,-17.7125,-39.2481,Pousada dos Navegantes
93,Bubaque,GW,76.86,broken clouds,11.2833,-15.8333,"Casa Dora, Bubaque"
97,Sitka,US,51.69,overcast clouds,57.0531,-135.33,Westmark Sitka
99,Lebu,CL,54.9,broken clouds,-37.6167,-73.65,Hostal Las Lilas
100,Chuy,UY,54.72,moderate rain,-33.6971,-53.4616,Nuevo Hotel Plaza
102,Statesboro,US,78.6,clear sky,32.4488,-81.7832,"Holiday Inn Statesboro-University Area, an IHG Hotel"
103,Diffa,NE,88.5,scattered clouds,13.3154,12.6113,ProDAF/Diffa
104,Pakxan,LA,73.8,scattered clouds,18.3778,103.6601,Kong Kham Pheng Guesthouse
105,Jamestown,US,52.02,clear sky,42.097,-79.2353,Hampton Inn & Suites Jamestown
106,Westport,US,66.18,clear sky,41.1415,-73.3579,The Inn at Longshore
111,Mitsamiouli,KM,79.39,light rain,-11.3847,43.2844,Foyer ADM
114,Hobart,AU,57.25,few clouds,-42.8794,147.3294,St Ives Hobart Accommodation Tasmania
116,East London,ZA,63.91,moderate rain,-33.0153,27.9116,Tu Casa
118,Ponta Do Sol,PT,63.23,overcast clouds,32.6667,-17.1,Hotel do Campo
119,Ocho Rios,JM,77.81,broken clouds,18.4025,-77.1048,Hibiscus Lodge
124,Bluff,NZ,57.79,broken clouds,-46.6,168.3333,Bluff Homestead - Guesthouse & Campervan Park
126,Marawi,PH,71.29,broken clouds,7.9986,124.2928,Derogongan Residence
127,Ugoofaaru,MV,83.07,overcast clouds,5.6667,73.0,Ungoofaaru Inn
128,Atuona,PF,79.07,scattered clouds,-9.8,-139.0333,Villa Enata
129,Kahului,US,84.22,broken clouds,20.8947,-156.47,Maui Seaside Hotel
130,Havelock,US,71.98,overcast clouds,34.8791,-76.9013,Sherwood Motel
131,Esperance,AU,57.74,clear sky,-33.8667,121.9,Hospitality Esperance
132,Ketchikan,US,52.27,scattered clouds,55.3422,-131.6461,Snow's Cove Lodge
133,Katsuura,JP,67.21,overcast clouds,35.1333,140.3,Katsuura Hotel Mikazuki
134,Akoupe,CI,75.65,scattered clouds,6.39,-3.9003,Hotel le Pavillon
135,New Norfolk,AU,56.91,clear sky,-42.7826,147.0587,The Shingles Riverside Cottages
136,North Bend,US,63.25,clear sky,43.4065,-124.2243,Red Lion Hotel Coos Bay
137,Broome,US,53.01,clear sky,42.2506,-75.833,Chenango Valley State Park
138,Alice Springs,AU,58.55,overcast clouds,-23.7,133.8833,Desert Palms Alice Springs
139,Katobu,ID,77.47,overcast clouds,-4.9408,122.5276,La Ode Husein
140,Tanggu,CN,57.16,clear sky,39.0211,117.6469,Ibis Tianjin Tanggu Hotel
141,San Patricio,US,82.18,clear sky,28.017,-97.5169,"Motel 6 Sinton, TX"
143,Cidreira,BR,71.37,moderate rain,-30.1811,-50.2056,Hotel Castelo
144,Kapaa,US,82.38,broken clouds,22.0752,-159.319,Sheraton Kauai Coconut Beach Resort
147,Demba,CD,71.31,broken clouds,-5.51,22.2667,Guest House Du Cinquantenaire
148,Isangel,VU,80.92,broken clouds,-19.55,169.2667,Tanna Lodge
150,Bengkulu,ID,76.39,overcast clouds,-3.8004,102.2655,Grage Hotel Bengkulu
151,Touros,BR,79.99,very heavy rain,-5.1989,-35.4608,INN NEW HORIZON
152,Patur,IN,89.13,overcast clouds,20.45,76.9333,Hotel Rana Washim Road Patur
153,Topeka,US,79.18,overcast clouds,39.0483,-95.678,Hotel Topeka At City Center
155,Jishou,CN,68.9,overcast clouds,28.3167,109.7167,7 Days Inn
157,Tautira,PF,79.18,light rain,-17.7333,-149.15,Pension Oaoa
159,Bintulu,MY,79.21,thunderstorm,3.1667,113.0333,900 Boutique INN
160,Hasaki,JP,66.29,overcast clouds,35.7333,140.8333,Inubosaki Kanko Hotel
162,Manokwari,ID,79.43,heavy intensity rain,-0.8667,134.0833,Swiss Belhotel Manokwari
163,Namwala,ZM,64.13,overcast clouds,-15.7504,26.4384,Corner Point Lodge
164,Xam Nua,LA,63.63,clear sky,20.4197,104.0439,Xee Wang Guesthouse
165,Kikwit,CD,71.82,light rain,-5.041,18.8162,HOTEL PLACE YALABA
166,Takoradi,GH,80.76,few clouds,4.8845,-1.7554,Raybow International Hotel
167,Bure,ET,60.98,light rain,10.7,37.0667,Holiday
168,Tomatlan,MX,86.13,clear sky,19.9333,-105.25,El Salvial
170,Shingu,JP,67.75,overcast clouds,33.7333,135.9833,Shingu UI Hotel
171,Road Town,VG,78.89,scattered clouds,18.4167,-64.6167,"ZINGARA 76ft Catamaran, full crew-all included"
173,Victoria,HK,78.96,clear sky,22.2855,114.1577,Mini Hotel Central
175,Barra Do Garcas,BR,74.5,scattered clouds,-15.89,-52.2567,Pousada Tropical
176,Sechura,PE,74.52,scattered clouds,-5.5569,-80.8222,Hospedaje Costa Bella
177,Rosarito,MX,65.25,broken clouds,32.3333,-117.0333,Hotel Festival Plaza Rosarito
180,Den Helder,NL,55.38,overcast clouds,52.9599,4.7593,Hotel Den Helder
181,Sola,VU,81.21,overcast clouds,-13.8833,167.55,Leumerus Bungalows
182,Shimoda,JP,66.56,overcast clouds,34.6667,138.95,Shimoda Tokyu Hotel
183,Kudahuvadhoo,MV,82.78,overcast clouds,2.6708,72.8944,Niyama Private Islands Maldives
184,Aljezur,PT,52.97,overcast clouds,37.3191,-8.8033,Amazigh Hostel
185,Pokhara,NP,66.78,clear sky,28.2333,83.9833,OYO 170 Hotel View Point
186,Bambous Virieux,MU,76.21,scattered clouds,-20.3428,57.7575,Casa Tia Villa
188,Medea,DZ,51.55,scattered clouds,36.2642,2.7539,Hôtel M'Sallah
189,Port Hardy,CA,51.98,broken clouds,50.6996,-127.4199,Airport Inn-Port Hardy
191,Souillac,MU,75.58,scattered clouds,-20.5167,57.5167,Shanti Maurice Resort & Spa
193,Shenzhen,CN,78.85,few clouds,22.5455,114.0683,Grand Skylight
194,Boa Vista,BR,82.38,few clouds,2.8197,-60.6733,Aipana Plaza Hotel
195,Oytal,KZ,59.04,scattered clouds,42.9057,73.2697,Sanatorium Ak-Niet
199,Emerald,AU,68.34,broken clouds,-23.5333,148.1667,The Irish Village
200,Bac Lieu,VN,82.24,scattered clouds,9.285,105.7244,Khách sạn Sài Gòn Bạc Liêu
201,Dunedin,NZ,59.81,broken clouds,-45.8742,170.5036,Scenic Hotel Southern Cross
202,Constitucion,CL,56.44,overcast clouds,-35.3333,-72.4167,Hotel Boutique Las Azucenas
203,Georgetown,MY,82.33,few clouds,5.4112,100.3354,Cititel Penang
204,Hobyo,SO,82.85,overcast clouds,5.3505,48.5268,Iftin hotel hobyo
205,Sabang,ID,83.68,overcast clouds,5.8933,95.3214,Hotel Citra
206,Cayenne,GF,77.09,overcast clouds,4.9333,-52.3333,Hôtel Le Dronmi
207,Las Palmas,ES,61.59,clear sky,28.4204,-14.0131,Casillas De Morales 59.
208,Bahia De Caraquez,EC,80.78,overcast clouds,-0.6,-80.4167,Saiananda Eco-Hotel
209,Edgewater,US,75.34,clear sky,28.9889,-80.9023,Islander Beach Resort
212,Maragogi,BR,78.21,clear sky,-9.0122,-35.2225,Salinas do Maragogi All Inclusive Resort
213,Bentiu,SS,85.1,overcast clouds,9.2333,29.8333,Mandela hôtel
214,Ouargaye,BF,94.1,few clouds,11.5033,0.0572,Résidence le Cotonnier
215,Nago,JP,77.45,overcast clouds,26.5881,127.9761,Hotel Yugaf Inn Okinawa
216,Santo Amaro Da Imperatriz,BR,76.8,moderate rain,-27.6881,-48.7786,BBS Comércio de Produtos Agropecuários.
218,Alofi,NU,84.09,clear sky,-19.0595,-169.9187,Taloa Heights
219,Guerrero Negro,MX,66.51,scattered clouds,27.9769,-114.0611,"Casa Laguna, Bed & Breakfast"
220,Praia Da Vitoria,PT,57.45,broken clouds,38.7333,-27.0667,Hotel Branco I
221,Port Lincoln,AU,60.17,overcast clouds,-34.7333,135.8667,Port Lincoln Hotel
222,Peniche,PT,51.12,overcast clouds,39.3558,-9.3811,Hotel Star inn Peniche
224,Chicama,PE,61.34,overcast clouds,-7.8447,-79.1469,Balihai Bungalows
225,North Platte,US,91.29,overcast clouds,41.1239,-100.7654,"Holiday Inn Express & Suites North Platte, an IHG Hotel"
227,Maxixe,MZ,70.84,overcast clouds,-23.8597,35.3472,Oceano
229,Ribeira Grande,PT,58.48,overcast clouds,38.5167,-28.7,Quinta da Meia Eira
230,Santa Cruz De Tenerife,ES,63.72,clear sky,28.4682,-16.2546,Hotel Silken Atlántida Santa Cruz
231,Skibbereen,IE,56.1,overcast clouds,51.55,-9.2667,The West Cork Hotel
232,Chiredzi,ZW,64.62,few clouds,-21.05,31.6667,Clevers Hotel Chiredzi
235,Laguna,US,70.05,few clouds,38.421,-121.4238,"Holiday Inn Express & Suites Elk Grove Central - Hwy 99, an IHG Hotel"
237,Bonthe,SL,80.37,overcast clouds,7.5264,-12.505,Bonthe Holiday Village
238,San Pedro,PH,84.25,few clouds,14.35,121.0167,Esquivel's Garden And Resort
239,Tholos,GR,53.67,clear sky,40.9999,23.7823,VILLA CHRISTOU VARVALA
240,Nguru,NG,89.55,overcast clouds,12.8791,10.4526,Government Lodge
243,La Gomera,GT,85.71,overcast clouds,14.0833,-91.05,Cede.E.T.V
244,Arraial Do Cabo,BR,75.81,clear sky,-22.9661,-42.0278,Pousada Porto Praia
245,Codrington,AU,54.21,clear sky,-38.2667,141.9667,Codrington Gardens Bed And Breakfast
247,Surt,LY,63.73,clear sky,31.2089,16.5887,الهادي ابوشعاله سرت
249,Waitati,NZ,59.81,overcast clouds,-45.75,170.5667,Arden Country House BnB Dunedin
250,Ixtapa,MX,78.03,clear sky,20.7,-105.2,hotel la terminal
251,Sakakah,SA,74.77,broken clouds,29.9697,40.2064,Fakhamat Al Orjoana Apartment
252,Tuatapere,NZ,54.7,few clouds,-46.1333,167.6833,Ron and Tony's Bed & Breakfast
253,Bida,NG,84.94,broken clouds,9.0833,6.0167,Royal Suite
254,Coahuayana,MX,85.98,clear sky,18.7333,-103.6833,El rranchito michuacan de ocampos
255,Kavaratti,IN,83.95,overcast clouds,10.5669,72.642,Hotels in Lakshadweep Islands
256,Formosa Do Rio Preto,BR,77.63,broken clouds,-11.0483,-45.1931,Porto Center Hotel
258,Mayo,US,71.71,clear sky,38.8876,-76.5119,Resorts Resource Group International
259,Geraldton,AU,66.61,clear sky,-28.7667,114.6,Broadwater Mariner Resort
260,Rolla,US,80.85,clear sky,37.9514,-91.7713,"Holiday Inn Express & Suites Rolla - Univ of Missouri S&T, an IHG Hotel"
261,Chabahar,IR,78.82,clear sky,25.2919,60.643,هتل گدروشیا
262,San Ramon,US,66.49,scattered clouds,37.7799,-121.978,San Ramon Marriott
264,Beyneu,KZ,60.73,broken clouds,45.3167,55.2,NUR
265,Chuncheng,CN,74.57,broken clouds,22.1731,111.7886,7Days Inn Yangjiang Yangchun Bus Terminal
266,Quang Ngai,VN,75.6,scattered clouds,15.1167,108.8,Central Hotel
269,Inhambane,MZ,71.87,overcast clouds,-23.865,35.3833,Oceano
270,Noshiro,JP,54.43,overcast clouds,40.2039,140.0242,Suigetsu
271,Hirara,JP,75.47,broken clouds,24.8,125.2833,Hotel Atoll Emerald Miyakojima
272,Moroni,KM,78.37,moderate rain,-11.7022,43.2551,Hotel les Arcades
273,Santa Isabel Do Rio Negro,BR,75.34,overcast clouds,-0.4139,-65.0192,Hotel GSA
274,Man,CI,72.72,light rain,7.4125,-7.5538,Sodetherm Hotel les Cascades Ma
277,Cairns,AU,77.07,light rain,-16.9167,145.7667,Mantra Trilogy Cairns
278,Rio Cuarto,AR,55.17,clear sky,-33.1307,-64.3499,Hotel Menossi
279,Selaphum,TH,84.99,few clouds,16.0299,103.9383,ศิวิไลซ์โปรเจคท์
282,Narasannapeta,IN,79.41,clear sky,18.4167,84.05,AVK events and catering
285,Black River,JM,78.69,broken clouds,18.0264,-77.8487,Idlers' Rest Beach Hotel
286,Vila Velha,BR,80.55,clear sky,-20.3297,-40.2925,Hotel Vitória Palace
287,Santa Maria,BR,65.5,thunderstorm with light rain,-29.6842,-53.8069,Hotel Morotin
288,Kaitangata,NZ,54.7,broken clouds,-46.2817,169.8464,Kaitangata Motor Camp
289,Shelburne,CA,51.76,overcast clouds,44.0787,-80.2041,The Retreat at the Farm
290,Port Elizabeth,ZA,60.1,light rain,-33.918,25.5701,39 On Nile Guest House
291,Manaure,CO,79.56,overcast clouds,11.7751,-72.4445,Hotel Palaaima
292,Marandahalli,IN,75.09,overcast clouds,12.4,78.0,NR BIRIYANI
293,Luena,AO,58.23,broken clouds,-11.7833,19.9167,Hotel Kandamba
294,Pisco,PE,65.01,clear sky,-13.7,-76.2167,Hotel San Isidro Oficial
295,Robertsport,LR,80.69,light rain,6.7533,-11.3686,Kwepunha Retreat
297,Calvinia,ZA,59.02,overcast clouds,-31.4707,19.776,Die Lemoenhuis
298,Tulsipur,NP,71.15,clear sky,28.131,82.2973,Ekanta Hotel Pvt. Ltd
301,Waipawa,NZ,55.06,few clouds,-41.4122,175.5153,Tora Coastal Walk
302,The Valley,AI,78.94,few clouds,18.217,-63.0578,CeBlue Villas & Beach Resort
303,Piste,MX,82.35,scattered clouds,20.7,-88.5833,Hotel Villas Arqueologicas Chichen Itza
304,Kruisfontein,ZA,57.88,overcast clouds,-34.0033,24.7314,Oyster Bay House Rental
306,Tabuk,PH,76.24,clear sky,17.4189,121.4443,Golden Berries Hotel and Convention
313,Broken Hill,AU,55.11,broken clouds,-31.95,141.4333,Royal Exchange Hotel
314,Diamantino,BR,76.96,broken clouds,-14.4086,-56.4461,Hotel Delta
316,Itoman,JP,77.4,broken clouds,26.1247,127.6694,Southern Beach Hotel & Resort Okinawa
318,Sibolga,ID,77.63,light rain,1.7427,98.7792,Hotel Syariah CN Darussalam
320,Hambantota,LK,79.7,overcast clouds,6.1241,81.1185,Bungalow 63
321,Najran,SA,74.05,scattered clouds,17.4924,44.1277,محمد هادي ال فطيح
323,Huarmey,PE,67.6,broken clouds,-10.0681,-78.1522,Hotel Miramar
324,Mashhad,IR,60.94,few clouds,36.297,59.6062,Khanye Sabz Hotel
327,Annau,TM,63.9,broken clouds,37.8876,58.516,"Гостиница ""Уссат инженер"""
328,Salaga,GH,83.77,broken clouds,8.5508,-0.5188,Bore Nada Guest House
330,Dagua,CO,70.3,light rain,3.6569,-76.6886,Hostal Río Dagua
331,Iberia,US,81.05,broken clouds,29.9502,-91.7507,back to back rv park
334,Pathein,MM,79.88,scattered clouds,16.7833,94.7333,Pathein Hotel
335,Pilar,BR,78.73,few clouds,-9.5972,-35.9567,Pousada e churrascaria Manguaba
336,Akyab,MM,80.73,clear sky,20.15,92.9,Hotel Memory
337,Tiarei,PF,84.22,light rain,-17.5333,-149.3333,Le Rocher de Tahiti
338,San Jose,US,65.48,scattered clouds,37.3394,-121.895,The Westin San Jose
339,Muros,ES,51.15,overcast clouds,42.7762,-9.0603,Apartment Av. Castelao
341,Panacan,PH,83.52,clear sky,9.2463,118.4082,Mom's Place Resort
342,Daru,PG,80.02,moderate rain,-9.0763,143.2092,Daru Lodge
345,Pitimbu,BR,79.39,overcast clouds,-7.4706,-34.8086,Reserva do Abiaí
346,Tongren,CN,70.11,light rain,27.7172,109.1853,Fanjing Mountain International Conference Center
351,Rocha,UY,53.33,moderate rain,-34.4833,-54.3333,Hotel Arrarte
352,Sibu,MY,75.51,scattered clouds,2.3,111.8167,RH HOTEL (4 Star)
353,Port Blair,IN,80.64,mist,11.6667,92.75,"Welcomhotel By ITC Hotels, Bay Island, Port Blair"
354,Raudeberg,NO,50.67,broken clouds,61.9875,5.1352,Nordre Silda.
355,Masasi,TZ,68.34,overcast clouds,-10.7167,38.8,Rose Royal Hotel
356,Kavieng,PG,83.46,light rain,-2.5744,150.7967,Nusa Island Retreat
357,Mecca,SA,80.44,clear sky,21.4267,39.8261,"Makkah Clock Royal Tower, A Fairmont Hotel"
358,Cape Canaveral,US,76.06,scattered clouds,28.4058,-80.6048,Residence Inn by Marriott Cape Canaveral Cocoa Beach
359,Ashqelon,IL,64.8,overcast clouds,31.6693,34.5715,Leonardo Ashkelon
361,Doembang Nangbuat,TH,83.05,clear sky,14.8333,100.1,ธาราริน วิลล่า
363,Sao Joao Da Barra,BR,76.03,clear sky,-21.6403,-41.0511,Pousada Porto De Canoas
366,Sitrah,BH,77.0,clear sky,26.1547,50.6206,Al Bander Resort
367,Ankazoabo,MG,72.64,overcast clouds,-22.2833,44.5167,ENCEIN BUREAU CISCO
368,Mahebourg,MU,76.24,scattered clouds,-20.4081,57.7,Shandrani Beachcomber Resort & Spa
369,Clovis,US,68.04,scattered clouds,36.8252,-119.7029,Fairfield Inn & Suites by Marriott Fresno Clovis
370,Zogno,IT,55.85,broken clouds,45.7919,9.6562,da Gianni Ristorante Hotel
371,Sorong,ID,77.58,overcast clouds,-0.8833,131.25,Waigo Splash Hotel
372,Hithadhoo,MV,84.36,overcast clouds,-0.6,73.0833,Scoop Guest House
373,Karimnagar,IN,82.69,broken clouds,18.4333,79.15,OYO 64335 Brundavanam Resort
374,Sinnamary,GF,75.65,overcast clouds,5.3833,-52.95,ALETHEIA Appartement Sinnamary
375,Karpathos,GR,58.96,clear sky,35.507,27.2132,Alex
378,Ardakan,IR,67.14,broken clouds,32.31,54.0175,Ardakan Hotel
379,Saint George,US,56.62,light rain,37.1041,-113.5841,Best Western Plus Abbey Inn
380,Bandarbeyla,SO,81.28,scattered clouds,9.4942,50.8122,JABIR HOTEL
381,Nueva Loja,EC,71.87,overcast clouds,0.0847,-76.8828,Limoncocha Great Hotel
382,La Ferte-Bernard,FR,55.02,broken clouds,48.1863,0.6536,Brit Hotel La Ferté-Bernard
385,Brownsville,US,84.2,dust,25.9018,-97.4975,Best Western Hotel Plaza Matamoros
387,Mahibadhoo,MV,82.71,overcast clouds,3.7833,72.9667,Omadhoo Inn
388,Kampong Chhnang,KH,81.37,few clouds,12.1667,104.55,ផ្ទះសំណាក់ហេងស្រស់
389,Balkhash,KZ,50.45,overcast clouds,46.844,74.9804,Family
394,Kamaishi,JP,58.68,overcast clouds,39.2667,141.8833,Hotel Route Inn Kamaishi
396,Marsa Matruh,EG,57.4,clear sky,31.3525,27.2453,Beau Site
397,Liberal,US,82.54,clear sky,37.0431,-100.921,Hampton Inn & Suites Liberal
399,Chimore,BO,76.66,overcast clouds,-16.9833,-65.1333,Bichito
401,Yulara,AU,64.24,overcast clouds,-25.2406,130.9889,Desert Gardens Hotel - Ayers Rock Resort
402,Acapetahua,MX,84.49,scattered clouds,15.2833,-92.7,Hotel Carmen
404,Guanare,VE,71.62,broken clouds,9.0418,-69.7421,Nuevo Hotel Coromoto
405,Timberlake,US,78.76,clear sky,37.3207,-79.2575,Timberlake Motel
407,Sobral,BR,73.98,heavy intensity rain,-3.6861,-40.3497,Hotel Vitória
408,Portland,US,62.58,broken clouds,45.5234,-122.6762,Embassy Suites by Hilton Portland Downtown
409,Coquimbo,CL,56.93,few clouds,-29.9533,-71.3436,Hotel San Juan
411,Arlit,NE,85.37,clear sky,18.7369,7.3853,Case de Passage De la Prefecture
412,Lodwar,KE,83.62,light rain,3.1191,35.5973,Solmar Gracious Hotel
413,Xining,CN,50.11,overcast clouds,36.6167,101.7667,Super Leisure Hotel
414,Sawakin,SD,81.28,broken clouds,19.1059,37.3321,فندق الدويم
417,Kyabram,AU,59.88,overcast clouds,-36.3167,145.05,Kyabram Motor Inn
421,Zajecar,RS,56.05,light rain,43.9036,22.2641,Hotel Hamburg
422,Naze,JP,72.52,overcast clouds,28.3667,129.4833,Shishime Hotel
423,Neiafu,TO,84.88,scattered clouds,-18.65,-173.9833,Mystic Sands Beachfront Accommodation
424,Lata,PT,50.81,light rain,40.1629,-8.3327,Casa Maquia
427,Natal,BR,77.65,moderate rain,-5.795,-35.2094,Villa Park Hotel | Natal
429,Northam,GB,52.25,overcast clouds,51.0333,-4.2167,Durrant House Hotel
430,Hopelchen,MX,75.52,broken clouds,19.7667,-89.85,Hotel Jaguar
431,Ngorongoro,TZ,51.91,broken clouds,-3.2397,35.4875,Simba Special Campsite B
433,Shantipur,IN,79.02,clear sky,23.25,88.4667,Ganesh Avenue
435,Griffith,US,59.31,mist,41.5284,-87.4237,Apartment above Depot Bar
436,Biak,ID,80.15,overcast clouds,-0.9131,122.8766,Penginapan Kim
437,Sena Madureira,BR,75.45,overcast clouds,-9.0656,-68.6569,Hotel Central
439,Bolama,GW,75.54,broken clouds,11.5833,-15.4667,Hotel Samaritana
444,Ilebo,CD,72.46,moderate rain,-4.3167,20.5833,Hôtel BUMAK
446,Vaitape,PF,79.79,light rain,-16.5167,-151.75,Conrad Bora Bora Nui
448,Moses Lake,US,62.96,clear sky,47.1301,-119.2781,Ramada by Wyndham Moses Lake
449,Harindanga,IN,81.03,clear sky,22.0383,88.3214,Hasanur Builders
450,Pedreiras,BR,74.01,broken clouds,-4.5688,-44.6003,Hotel Princesa do Mearim
452,Kieta,PG,80.38,overcast clouds,-6.2167,155.6333,Uruna Bay Retreat
454,Tual,ID,83.93,broken clouds,-5.6667,132.75,Grand Vilia Hotel
455,Chaohu,CN,66.81,moderate rain,31.6,117.8667,Shell Hefei Chaohu Railway Station Wanda Plaza Hotel
456,Lorengau,PG,84.45,overcast clouds,-2.0226,147.2712,Lorengau Harbourside Hotel
458,Buala,SB,83.39,light rain,-8.145,159.5921,Maringe Lagoon Lodge
459,Payakumbuh,ID,71.74,overcast clouds,-0.2202,100.6308,Dalimo Homestay
460,Cabo San Lucas,MX,87.1,clear sky,22.8909,-109.9124,Hotel Tesoro Los Cabos
461,Ciro Marina,IT,57.34,scattered clouds,39.3732,17.126,Hotel Miramare
465,Beziers,FR,57.38,clear sky,43.3476,3.219,Hôtel Terminus
466,Paita,PE,69.89,few clouds,-5.0892,-81.1144,Hotel Náutico de Paita
467,Warri,NG,77.9,overcast clouds,5.5167,5.75,BON Hotel Delta
468,Molina,CL,60.53,broken clouds,-35.1167,-71.2833,Hostal Pucará
469,Dingle,PH,82.35,scattered clouds,10.9995,122.6711,SEGAYA PROPERTY
470,Dagana,MR,82.8,broken clouds,16.5165,-15.5068,Quartier Dille koumba fatim thiam
471,Wajir,KE,77.54,overcast clouds,1.7471,40.0573,Al-bustan Hotel And Restaurant.
472,Frondenberg,DE,52.16,broken clouds,51.4667,7.7667,Hotel Am Rathaus
473,Escondido,US,64.29,scattered clouds,33.1192,-117.0864,Best Western Escondido Hotel
474,Gonzalez,US,75.47,clear sky,30.5816,-87.2914,Rosan Plaza Hotel
477,Harlingen,US,84.29,broken clouds,26.1906,-97.6961,Courtyard by Marriott Harlingen
478,Komsomolskiy,UZ,57.92,clear sky,40.4272,71.7189,Ikathouse
479,Beruwala,LK,78.26,overcast clouds,6.4788,79.9828,The Palms Hotel
481,Acarau,BR,78.12,overcast clouds,-2.8856,-40.12,castelo pizzaria
483,Mareeba,AU,72.45,light rain,-17.0,145.4333,Trinity Plains Tourist Park
484,Umm Lajj,SA,78.12,scattered clouds,25.0213,37.2685,Moon light Furnished Units
485,Wisch,NL,53.06,scattered clouds,51.9265,6.4171,Hotel Restaurant De Ploeg
486,Camabatela,AO,62.26,broken clouds,-8.1881,15.375,Comércio e Prestação de Serviços
487,Talkha,EG,54.37,broken clouds,31.0539,31.3779,Almadiafah
489,Ruangwa,TZ,69.73,overcast clouds,-10.0667,38.9333,Bariadi Inn & lodge
490,Mandalay,MM,85.91,few clouds,21.9747,96.0836,Hotel Yadanarbon
491,Manaus,BR,79.3,broken clouds,-3.1019,-60.025,Manaus Hotéis Millennium
492,Mantua,IT,54.55,overcast clouds,45.1667,10.7833,Hotel la Favorita
493,Ancud,CL,57.22,light rain,-41.8697,-73.8203,Hotel Arena Gruesa
494,Srandakan,ID,77.9,broken clouds,-7.9386,110.2506,Puri Brata
495,Henderson,US,72.82,clear sky,36.0397,-114.9819,Hawthorn Suites By Wyndham Las Vegas/Henderson
498,Port Moresby,PG,81.82,scattered clouds,-9.4431,147.1797,Lamana Hotel (Port Moresby)
499,Flinders,AU,65.17,broken clouds,-34.5833,150.8552,Shellharbour Resort & Conference Centre
501,Neuquen,AR,58.89,light rain,-38.9516,-68.0591,Hotel del Comahue
502,Santa Rosa,PH,85.08,few clouds,14.3122,121.1114,Erlyn’s Sta Rosa City Home
503,Puerto Madero,MX,88.0,overcast clouds,14.7208,-92.4215,DEPARTAMENTOS LA ESTANCIA
507,Namatanai,PG,84.61,light rain,-3.6667,152.4333,Seagulls Inn Namatani
510,San Andres,CO,84.22,scattered clouds,12.5847,-81.7006,Hotel Arena Blanca
515,Marsh Harbour,BS,73.71,broken clouds,26.5412,-77.0636,Abaco Beach Resort
516,Dzaoudzi,YT,80.49,broken clouds,-12.7887,45.2699,Le Rocher
517,Katerini,GR,55.98,scattered clouds,40.2719,22.5025,Hotel Olympion
518,Lompoc,US,63.79,scattered clouds,34.6391,-120.4579,"Holiday Inn Express Lompoc, an IHG Hotel"
519,Palmas,BR,75.07,scattered clouds,-10.2128,-48.3603,Hotel Lago da Palma
520,Teknaf,BD,78.57,clear sky,20.8624,92.3058,Forestry Guesthouse
522,Acapulco,MX,85.82,scattered clouds,16.8634,-99.8901,HS Hotsson Smart Acapulco
523,Olinda,BR,82.13,light rain,-8.0089,-34.8553,Flat Quatro Rodas Olinda
524,Kedougou,SN,90.59,overcast clouds,12.5579,-12.1743,Relais de Kédougou
525,Erdaojiang,CN,55.02,clear sky,41.7764,126.0319,Tonggang Hotel
527,Kitimat,CA,57.58,overcast clouds,54.0524,-128.6534,Kingfish Westcoast Adventures Ltd. Kitimat Estuary Lodge B&B
528,Farafangana,MG,73.81,moderate rain,-22.8167,47.8333,Miarina
529,Ocos,GT,87.98,few clouds,14.5094,-92.1933,Auto Hotel El Soñador
531,Koupela,BF,94.5,clear sky,12.1794,-0.3517,AUBERGE MAQUIS RESTO CAFE LE ROUTIER PLUS
536,Champa,IN,80.2,few clouds,22.05,82.65,Hotel Jaipuria
537,Sur,OM,85.1,overcast clouds,22.5667,59.5289,Sur Plaza Hotel
538,Celestun,MX,81.27,clear sky,20.8667,-90.4,Posada Lilia
541,Havre,FR,52.2,clear sky,49.5833,0.3333,gite bois jourdain
543,Saint-Lo,FR,52.23,broken clouds,49.1162,-1.0903,Hôtel Mercure Saint-Lô Centre
544,Puerto Escondido,MX,85.03,broken clouds,15.85,-97.0667,Aldea del Bazar Hotel and Spa
545,Tramandai,BR,68.83,light rain,-29.9847,-50.1336,Hotel Da Praia
546,Abha,SA,62.42,few clouds,18.2164,42.5053,Abha Hotel
547,Tukrah,LY,62.13,scattered clouds,32.5341,20.5791,Lagrota restaurant
549,Maun,BW,62.56,clear sky,-19.9833,23.4167,Enviro Villa
551,Tuy Hoa,VN,78.42,scattered clouds,13.0833,109.3,CenDeluxe Hotel Tuy Hoa
553,Lazaro Cardenas,MX,81.81,clear sky,17.9583,-102.2,HOTEL QUINTA ANTIGUA
554,Alyangula,AU,84.07,clear sky,-13.8483,136.4192,Groote Eylandt Lodge
556,Hopkinsville,US,82.44,clear sky,36.8656,-87.4886,Hampton Inn & Suites Hopkinsville
557,Pacific Grove,US,64.24,scattered clouds,36.6177,-121.9166,Lovers Point Inn
558,Brigantine,US,59.05,broken clouds,39.4101,-74.3646,Legacy Vacation Resorts - Brigantine Beach
560,Izumo,JP,66.15,broken clouds,35.3667,132.7667,Toyoko-Inn Izumoshi ekimae
561,Riyadh,SA,73.54,broken clouds,24.6877,46.7219,"InterContinental Riyadh, an IHG Hotel"
562,Lamu,KE,80.31,scattered clouds,-2.2717,40.902,Lamu House
563,Tchollire,CM,82.67,scattered clouds,8.4022,14.1698,"Auberge ""l'amicale"""
564,San Carlos Del Zulia,VE,74.82,broken clouds,9.0,-71.9135,Hotel El Manantial
565,Tembisa,ZA,57.29,few clouds,-25.9964,28.2268,2 Bongani Trevor Khumalo Crescent
567,Bethel,US,62.69,clear sky,41.3712,-73.414,Courtyard by Marriott Danbury
569,Trinidad,BO,82.38,broken clouds,-14.8333,-64.9,Hotel Piesta
570,Kushima,JP,68.5,overcast clouds,31.4583,131.2333,Hanaoka
572,Yining,CN,70.11,broken clouds,29.0361,114.5636,Xiushui Hotel
573,Plettenberg Bay,ZA,59.95,overcast clouds,-34.0527,23.3716,Thanda Vista B&B
575,Kango,GA,75.0,overcast clouds,0.1943,10.0951,Hôtel Bar Restaurant Le Bercail
577,Concepcion,CL,55.2,broken clouds,-36.827,-73.0498,Hotel El Araucano
578,Cariati,IT,56.77,broken clouds,39.4922,16.9594,La Residenza
579,Kudat,MY,82.33,few clouds,6.8837,116.8477,Dream Garden Hotel
580,Andrews,US,87.06,broken clouds,32.3187,-102.5457,Days Inn by Wyndham Andrews Texas
581,Muroto,JP,66.33,overcast clouds,33.2833,134.15,Oota Ryokan
583,Copiapo,CL,55.09,few clouds,-27.3667,-70.3333,Antay Casino Hotel
584,Auki,SB,83.41,overcast clouds,-8.7676,160.7034,Auki Motel
585,Galesong,ID,75.22,broken clouds,-5.3166,119.3661,Sapriadi Appy
587,Barra Da Estiva,BR,65.43,scattered clouds,-13.6261,-41.3269,Pousada Central
588,Jinxiang,CN,67.62,overcast clouds,27.4327,120.6062,Wolong Village
589,Lakes Entrance,AU,57.16,clear sky,-37.8811,147.981,The Esplanade Resort & Spa
590,Morrope,PE,66.31,broken clouds,-6.5417,-80.0111,CASA WAYRA HOTEL
592,Cuenca,EC,59.13,broken clouds,-2.8833,-78.9833,Hotel Cuenca
594,Alta Floresta,BR,72.1,broken clouds,-9.8756,-56.0861,Floresta Amazonica Hotel
595,Pingliang,CN,57.18,broken clouds,35.5392,106.6861,North Gate Hostel
596,Yanam,IN,76.33,few clouds,16.7333,82.2167,The Regency Hotel
597,Eraclea,IT,54.45,overcast clouds,45.5806,12.6756,Ponte Crepaldo
599,Sao Fidelis,BR,72.86,clear sky,-21.6461,-41.7469,Hotel São José
600,El Vigia,VE,75.38,broken clouds,8.6219,-71.6506,Liceo Bolivariano 19 De Abril
601,Waiouru,NZ,50.92,clear sky,-39.4833,175.6667,Tawhiri
602,Jacqueville,CI,81.07,scattered clouds,5.2052,-4.4146,Hotel Le Martin Pecheur
603,Russell,US,80.2,clear sky,32.3502,-85.1999,Macs
604,Los Llanos De Aridane,ES,60.55,overcast clouds,28.6585,-17.9182,Valle Aridane
606,Abu Zabad,SD,81.81,overcast clouds,12.35,29.25,حامد محمد نور
609,Watertown,US,60.66,few clouds,42.3709,-71.1828,16 Washburn Street Watertown MA
611,Viedma,AR,50.5,scattered clouds,-40.8135,-62.9967,Hotel Cristal
614,Ahipara,NZ,66.38,broken clouds,-35.1667,173.1667,Ahipara Holiday Park
615,Kawalu,ID,75.0,overcast clouds,-7.3817,108.2082,West Jontor
617,Sao Jose Da Coroa Grande,BR,78.37,few clouds,-8.8978,-35.1478,Crôa Mares Hotel
618,Pierre,US,77.92,clear sky,44.3683,-100.351,Ramkota Hotel
620,San Cristobal,VE,73.58,broken clouds,7.7669,-72.225,Pirineos
622,Nantucket,US,59.05,clear sky,41.2835,-70.0995,Jared Coffin House
624,Luganville,VU,79.63,light rain,-15.5333,167.1667,The Espiritu Hotel
625,Salvador,SV,78.84,overcast clouds,13.8333,-88.9167,Chico's Ranch
626,Ishigaki,JP,77.13,broken clouds,24.3448,124.1572,Hotel Peace Land Ishigakijima
628,Saint-Joseph,RE,75.58,light rain,-21.3667,55.6167,"""Plantation Bed and Breakfast"
630,Chapada Dos Guimaraes,BR,74.86,scattered clouds,-15.4606,-55.7497,Pousada Morro Dos Ventos
632,Rumford,US,50.83,scattered clouds,44.5537,-70.5509,coastal rentals llc
634,Lanzhou,CN,60.37,scattered clouds,36.0564,103.7922,Lanzhou Amdo Xiangbala Hotel
636,Christchurch,NZ,59.41,broken clouds,-43.5333,172.6333,The George
637,Indaparapeo,MX,84.88,scattered clouds,19.7833,-100.9667,Hotel Familiar
638,Kingaroy,AU,62.64,scattered clouds,-26.5333,151.8333,Ascot Lodge Motel Kingaroy
639,Salalah,OM,80.69,few clouds,17.0151,54.0924,"HAMDAN PLAZA HOTEL SALALAH, an HTG Hotel"
642,West Bay,KY,82.47,scattered clouds,19.3667,-81.4167,Calypso Cove
643,Te Anau,NZ,56.48,broken clouds,-45.4167,167.7167,Kingsgate Hotel Te Anau
646,Marsabit,KE,65.53,overcast clouds,2.3284,37.9899,Chicho Hotel
648,Knysna,ZA,59.52,overcast clouds,-34.0363,23.0471,Protea Hotel by Marriott Knysna Quays
651,Port Macquarie,AU,64.29,broken clouds,-31.4333,152.9167,Rydges Port Macquarie
652,Virginia Beach,US,69.87,scattered clouds,36.8529,-75.978,Hilton Virginia Beach Oceanfront
653,Khasan,RU,50.59,clear sky,42.4308,130.6434,Fangchuan Self-Driving Camp
655,Dunkirk,FR,55.0,broken clouds,51.05,2.3667,All Suites Appart Hôtel Dunkerque
657,Una,IN,85.62,few clouds,20.8167,71.0333,Hotel Harbhole
658,Melo,UY,53.83,moderate rain,-32.3667,-54.1833,Hotel Juana
659,Benguela,AO,75.15,broken clouds,-12.5763,13.4055,Hotel Praia Morena
660,Namibe,AO,72.28,scattered clouds,-15.1961,12.1522,Hotel Chik Chik Namibe
661,Abu Dhabi,AE,78.91,clear sky,24.4667,54.3667,Beach Rotana
662,Ulladulla,AU,61.7,overcast clouds,-35.35,150.4667,Sandpiper Motel
663,La Plata,AR,56.82,scattered clouds,-34.9215,-57.9545,Hotel Corregidor
664,Labuhan,ID,80.44,broken clouds,-6.8844,112.2051,DoubleFAG
668,Mackay,AU,73.69,scattered clouds,-21.15,149.2,International Lodge Motel
670,Ca Mau,VN,82.44,few clouds,9.1769,105.15,Khách Sạn Mường Thanh Luxury Cà Mau
671,Nakamura,JP,71.67,light rain,32.9833,132.9333,Hotel Crown Hills Nakamura
672,San-Pedro,CI,78.8,overcast clouds,4.7485,-6.6363,Hotel Maria
673,Remanso,BR,82.02,broken clouds,-9.6179,-42.0831,Hotel Mangueira
675,Maraba,BR,72.68,overcast clouds,-5.3686,-49.1178,Hotel Del Principe
676,Smithers,CA,52.12,overcast clouds,54.7804,-127.1743,"Prestige Hudson Bay Lodge, Premier Collection"
677,Kiama,AU,66.0,overcast clouds,-34.6833,150.8667,The Sebel Kiama Harbourside
679,Frontera,MX,94.32,clear sky,26.9333,-101.45,Fiesta Inn Monclova
680,Cabedelo,BR,79.47,overcast clouds,-6.9811,-34.8339,Hotel Pigalle
681,Salinas,US,64.42,clear sky,36.6777,-121.6555,Laurel Inn & Conference Center
682,Key West,US,82.4,clear sky,24.5557,-81.7826,Fairfield Inn & Suites by Marriott Key West
686,Rahden,DE,53.85,few clouds,52.4333,8.6167,Hotel Westfalen Hof
688,Baghmara,IN,81.9,clear sky,23.795,86.2085,Shankar tea shop
690,Nancha,CN,52.45,broken clouds,47.1333,129.2667,Communications Hotel
691,Tabas,IR,82.62,overcast clouds,33.5959,56.9244,شرکت معماری مهراز شایگان آراد
692,Charters Towers,AU,69.96,overcast clouds,-20.1,146.2667,Cattleman's Rest Motor Inn
693,Antofagasta,CL,61.88,scattered clouds,-23.65,-70.4,"Holiday Inn Express Antofagasta, an IHG Hotel"
694,Agadir,MA,57.65,clear sky,30.4202,-9.5982,Iberostar Founty Beach
695,Saint-Pierre,RE,74.88,clear sky,-21.3393,55.4781,Lindsey Hôtel
696,Debre Tabor,ET,57.16,light rain,11.85,38.0167,Bahirdar
697,Harper,LR,78.64,scattered clouds,4.375,-7.7169,Screensaver
699,Odweyne,SO,72.68,broken clouds,9.4092,45.064,Eng Hiirey House
